Location,Latitude,Longitude
Jakarta,-6.1744651,106.822745
East Jakrta,-6.229299115,106.9081306
Central Jakarta,-6.186806091,106.8388653
North Jakarta,-6.139018692,106.8663311
West Jakarta ,-6.170934326,106.7594719
South Jakarta,-6.266157747,106.8114853
Jakarta Selatan,-6.247046188,106.8317413
Jakarta Timur,-6.303013776,106.8894196
Jakarta Utara,-6.146357751,106.8662453
Jakarta Barat,-6.17980892,106.804018
Jakarta Pusat,-6.161035564,106.8529415
